id,iata,icao,city,descr,region,runways,longest,altitude,country,continent,lat,lon
1,ATL,KATL,Atlanta,Hartsfield - Jackson Atlanta International Airport,US-GA,5,12390,1026,US,,33.6366996765137,-84.4281005859375
2,ANC,PANC,Anchorage,Anchorage Ted Stevens,US-AK,3,12400,151,US,,61.1744003295898,-149.996002197266
3,AUS,KAUS,Austin,Austin Bergstrom International Airport,US-TX,2,12250,542,US,,30.1944999694824,-97.6698989868164
4,BNA,KBNA,Nashville,Nashville International Airport,US-TN,4,11030,599,US,,36.1245002746582,-86.6781997680664
5,BOS,KBOS,Boston,Boston Logan,US-MA,6,10083,19,US,,42.36429977,-71.00520325
6,BWI,KBWI,Baltimore,Baltimore/Washington International Airport,US-MD,3,10502,143,US,,39.17539978,-76.66829681
7,DCA,KDCA,Washington D.C.,Ronald Reagan Washington National Airport,US-DC,3,7169,14,US,,38.8521003723145,-77.0376968383789
8,DFW,KDFW,Dallas,Dallas/Fort Worth International Airport,US-TX,7,13401,607,US,,32.896800994873,-97.0380020141602
9,FLL,KFLL,Fort Lauderdale,Fort Lauderdale/Hollywood International Airport,US-FL,2,9000,64,US,,26.0725994110107,-80.152702331543
10,IAD,KIAD,Washington D.C.,Washington Dulles International Airport,US-VA,4,11500,313,US,,38.94449997,-77.45580292
11,IAH,KIAH,Houston,George Bush Intercontinental,US-TX,5,12001,96,US,,29.9843997955322,-95.3414001464844
12,JFK,KJFK,New York,New York John F. Kennedy International Airport,US-NY,4,14511,12,US,,40.63980103,-73.77890015
13,LAX,KLAX,Los Angeles,Los Angeles International Airport,US-CA,4,12091,127,US,,33.94250107,-118.4079971
14,LGA,KLGA,New York,New York La Guardia,US-NY,2,7003,20,US,,40.77719879,-73.87259674
15,MCO,KMCO,Orlando,Orlando International Airport,US-FL,4,12005,96,US,,28.4293994903564,-81.3089981079102
16,MIA,KMIA,Miami,Miami International Airport,US-FL,4,13016,8,US,,25.7931995391846,-80.2906036376953
17,MSP,KMSP,Minneapolis,Minneapolis-St.Paul International Airport,US-MN,4,11006,841,US,,44.8819999695,-93.2218017578
18,ORD,KORD,Chicago,Chicago O'Hare International Airport,US-IL,7,13000,672,US,,41.97859955,-87.90480042
19,PBI,KPBI,West Palm Beach,Palm Beach International Airport,US-FL,3,10000,19,US,,26.6832008361816,-80.0955963134766
20,PHX,KPHX,Phoenix,Phoenix Sky Harbor International Airport,US-AZ,3,11489,1135,US,,33.4342994689941,-112.012001037598
21,RDU,KRDU,Raleigh,Raleigh-Durham,US-NC,3,10000,435,US,,35.8776016235352,-78.7874984741211
22,SEA,KSEA,Seattle,Seattle-Tacoma,US-WA,3,11901,432,US,,47.4490013122559,-122.30899810791
23,SFO,KSFO,San Francisco,San Francisco International Airport,US-CA,4,11870,13,US,,37.6189994812012,-122.375
24,SJC,KSJC,San Jose,Norman Y. Mineta San Jose International Airport,US-CA,3,11000,62,US,,37.3625984191895,-121.929000854492
25,TPA,KTPA,Tampa,Tampa International Airport,US-FL,3,11002,26,US,,27.9755001068115,-82.533203125
26,SAN,KSAN,San Diego,San Diego Lindbergh,US-CA,1,9400,16,US,,32.7336006165,-117.190002441
27,LGB,KLGB,Long Beach,Long Beach Airport,US-CA,3,10003,60,US,,33.81769943,-118.1520004
28,SNA,KSNA,Santa Ana,"Orange County/Santa Ana, John Wayne",US-CA,2,5701,56,US,,33.67570114,-117.8679962
29,SLC,KSLC,Salt Lake City,Salt Lake City,US-UT,4,12002,56,US,,40.7883987426758,-111.977996826172
30,LAS,KLAS,Las Vegas,Las Vegas Mc Carran,US-NV,4,14512,2181,US,,36.08010101,-115.1520004
31,DEN,KDEN,Denver,Denver International Airport,US-CO,6,16000,5433,US,,39.8616981506348,-104.672996520996
32,HPN,KHPN,White Plains,Westchester County,US-NY,2,6549,439,US,,41.0670013427734,-73.7076034545898
33,SAT,KSAT,San Antonio,San Antonio,US-TX,3,8505,809,US,,29.5337009429932,-98.4698028564453
34,MSY,KMSY,New Orleans,New Orleans L. Armstrong,US-LA,2,10104,3,US,,29.9934005737305,-90.2580032348633
35,EWR,KEWR,Newark,"Newark, Liberty",US-NY,3,11000,17,US,,40.6925010681152,-74.168701171875
36,CID,KCID,Cedar Rapids,The Eastern Iowa Airport,US-IA,2,8600,869,US,,41.8847007751465,-91.7108001708984
37,HNL,PHNL,Honolulu,Honolulu International Airport,US-HI,4,12312,13,US,,21.3187007904053,-157.921997070312
38,HOU,KHOU,Houston,Houston Hobby,US-TX,4,7602,46,US,,29.64539909,-95.27890015
39,ELP,KELP,El Paso,El Paso International Airport,US-TX,3,12020,3961,US,,31.80719948,-106.3779984
40,SJU,TJSJ,San Juan,"Puerto Rico, Luis Munoz International Airport",PR-U-A,2,10400,9,PR,,18.4393997192,-66.0018005371
41,CLE,KCLE,Cleveland,"Cleveland, Hopkins International Airport",US-OH,3,9956,799,US,,41.4117012024,-81.8498001099
42,OAK,KOAK,Oakland,Oakland,US-CA,4,10520,9,US,,37.7212982177734,-122.221000671387
43,TUS,KTUS,Tucson,Tucson International Airport,US-AZ,3,10996,2643,US,,32.1161003112793,-110.94100189209
44,SAF,KSAF,Santa Fe,Santa Fe,US-NM,3,8366,6348,US,,35.617099762,-106.088996887
45,PHL,KPHL,Philadelphia,Philadelphia International Airport,US-PA,4,10506,36,US,,39.871898651123,-75.241096496582
46,DTW,KDTW,Detroit,"Detroit Metropolitan, Wayne County",US-MI,6,12003,645,US,,42.2123985290527,-83.353401184082
47,YYZ,CYYZ,Toronto,Toronto Pearson International Airport,CA-ON,5,11120,569,CA,,43.6772003174,-79.6305999756
48,YVR,CYVR,Vancouver,Vancouver International Airport,CA-BC,3,11500,14,CA,,49.193901062,-123.183998108
49,LHR,EGLL,London,London Heathrow,GB-ENG,2,12799,83,UK,EU,51.4706001282,-0.461941003799
50,LGW,EGKK,London,London Gatwick,GB-ENG,2,10364,202,UK,EU,51.1481018066406,-0.190277993679047
51,CDG,LFPG,Paris,Paris Charles de Gaulle,FR-J,4,13829,392,FR,EU,49.0127983093,2.54999995232
52,FRA,EDDF,Frankfurt,Frankfurt am Main,DE-HE,4,13123,364,DE,EU,50.0264015198,8.54312992096
53,HEL,EFHK,Helsinki,Helsinki Ventaa,FI-18,3,11286,179,FI,EU,60.3171997070312,24.9633007049561
54,NRT,RJAA,Tokyo,Tokyo Narita,JP-12,2,13123,141,JP,AS,35.7647018433,140.386001587
55,SYD,YSSY,Sydney,Sydney Kingsford Smith,AU-NSW,3,12999,21,AU,OC,-33.9460983276367,151.177001953125
56,SIN,WSSS,Singapore,"Singapore, Changi International Airport",SG,3,13123,22,SG,AS,1.3501900434494,103.994003295898
57,MEL,YMML,Melbourne,Melbourne International Airport,AU-VIC,2,11998,434,AU,OC,-37.6733016967773,144.843002319336
58,DXB,OMDB,Dubai,Dubai International Airport,AE-DU,2,13124,62,AE,AS,25.2527999878,55.3643989563
59,DEL,VIDP,New Delhi,Indira Gandhi International Airport,IN-DL,3,14534,777,IN,AS,28.566499710083,77.1031036376953
60,DUB,EIDW,Dublin,Dublin International Airport,IE-D,2,8652,242,IE,EU,53.4212989807129,-6.27007007598877
61,HKG,VHHH,Hong Kong,Hong Kong - Chek Lap Kok International Airport,HK,2,12467,28,HK,AS,22.3089008331,113.915000916
62,PER,YPPH,Perth,Perth International Airport,AU-WA,2,11299,67,AU,OC,-31.940299987793,115.967002868652
63,AKL,NZAA,Auckland,Auckland International Airport,NZ-AUK,2,11926,23,NZ,OC,-37.0080986023,174.792007446
64,PEK,ZBAA,Beijing,Beijing Capital International Airport,CN-11,3,12468,116,CN,AS,40.0801010131836,116.584999084473
65,WLG,NZWN,Wellington,Wellington International Airport,NZ-WGN,1,6352,41,NZ,OC,-41.3272018433,174.804992676
66,BNE,YBBN,Brisbane,Brisbane International Airport,AU-QLD,2,11680,13,AU,OC,-27.3841991424561,153.117004394531
67,PVG,ZSPD,Shanghai,Shanghai - Pudong International Airport,CN-31,2,13123,13,CN,AS,31.1434001922607,121.805000305176
68,FCO,LIRF,Rome,Leonardo da Vinci-Fiumicino International Airport,IT-62,3,12795,15,IT,EU,41.8045005798,12.2508001328
69,BOM,VABB,Mumbai,"Mumbai, Chhatrapati Shivaji International Airport",IN-MM,2,11302,39,IN,AS,19.0886993408,72.8678970337
70,AMS,EHAM,Amsterdam,Amsterdam Airport Schiphol,NL-NH,6,12467,-11,NL,EU,52.3086013794,4.76388978958
71,KUL,WMKK,Kuala Lumpur,Kuala Lumpur International Airport,MY-14,3,13288,69,MY,AS,2.74557995796204,101.709999084473
72,PRG,LKPR,Prague,"Prague, Ruzyne International Airport",CZ-PR,2,12189,1247,CZ,EU,50.1007995605469,14.2600002288818
73,BCN,LEBL,Barcelona,Barcelona International Airport,ES-CT,3,11654,12,ES,EU,41.2971000671387,2.07845997810364
74,MAD,LEMD,Madrid,Adolfo Suarez Barajas Airport International Airport,ES-M,3,13711,1998,ES,EU,40.4936,-3.56676
75,VIE,LOWW,Vienna,Vienna International Airport,AT-9,2,11811,600,AT,EU,48.1102981567383,16.5697002410889
76,ZRH,LSZH,Zurich,Zurich-Kloten Airport,CH-ZH,3,12139,1416,CH,EU,47.4646987915039,8.54916954040527
77,GVA,LSGG,Geneva,Geneva-Cointrin International Airport,CH-GE,2,12795,1411,CH,EU,46.2380981445312,6.10895013809204
78,YOW,CYOW,Ottawa,Ottawa Macdonald-Cartier International Airport,CA-ON,3,10000,374,CA,,45.3224983215,-75.6691970825
79,BRU,EBBR,Brussels,Brussels Airport,BE-BRU,3,11936,184,BE,EU,50.9014015198,4.48443984985
80,MUC,EDDM,Munich,Munich International Airport,DE-BY,2,13123,1487,DE,EU,48.3538017272949,11.7861003875732
84,MAN,EGCC,Manchester,Manchester Airport,GB-ENG,2,10000,257,UK,EU,53.3536987304688,-2.27495002746582
87,CGN,EDDK,Cologne,Cologne Bonn Airport,DE-NW,3,12516,302,DE,EU,50.8658981323,7.1427397728
88,LCY,EGLC,London,London City Airport,GB-ENG,1,4948,19,UK,EU,51.505278,0.055278
90,VCE,LIPZ,Venice,Venice Marco Polo Airport,IT-34,2,10827,7,IT,EU,45.5052986145,12.3519001007
94,STN,EGSS,London,London Stansted Airport,GB-ENG,1,10003,348,UK,EU,51.8849983215,0.234999999404
95,EMA,EGNX,Nottingham,East Midlands Airport,GB-ENG,1,9491,306,UK,EU,52.8311004639,-1.32806003094
96,EDI,EGPH,Edinburgh,Edinburgh Airport,GB-SCT,3,8400,135,UK,EU,55.9500007629395,-3.37249994277954
97,GLA,EGPF,Glasgow,Glasgow International Airport,GB-SCT,2,8720,26,UK,EU,55.8718986511,-4.43306016922
98,LPL,EGGP,Liverpool,Liverpool John Lennon Airport,GB-ENG,1,7500,80,UK,EU,53.3335990905762,-2.8497200012207
107,ORY,LFPO,Paris,"Paris, Orly Airport",FR-J,3,11975,291,FR,EU,48.7252998352,2.35944008827
108,NCE,LFMN,Nice,Nice-Cote d'Azur Airport,FR-U,2,9712,12,FR,EU,43.6584014893,7.21586990356
109,MXP,LIMC,Milan,"Milan, Malpensa International Airport",IT-25,2,12861,768,IT,EU,45.6305999756,8.72811031342
113,ALC,LEAL,Alicante,Alicante International Airport,ES-V,1,9842,142,ES,EU,38.2821998596191,-0.55815601348877
114,BIO,LEBB,Bilbao,Bilbao Airport,ES-PV,2,8530,138,ES,EU,43.3011016845703,-2.91060996055603
115,IBZ,LEIB,Ibiza,Ibiza Airport,ES-PM,1,9186,24,ES,EU,38.8728981018,1.37311995029
116,MAH,LEMH,Menorca,Menorca Airport,ES-PM,2,7710,302,ES,EU,39.8625984191895,4.21864986419678
124,TFN,GCXO,Tenerife,Tenerife Norte Airport,ES-CN,1,11155,2076,ES,EU,28.4827003479,-16.3414993286
140,WAW,EPWA,Warsaw,Warsaw Chopin Airport,PL-MZ,2,12106,362,PL,EU,52.1656990051,20.9671001434
167,HAM,EDDH,Hamburg,Hamburg Airport,DE-HH,2,12028,53,DE,EU,53.6304016113281,9.98822975158691
168,STR,EDDS,Stuttgart,Stuttgart Airport,DE-BW,1,10974,1276,DE,EU,48.6898994446,9.22196006775
169,GOA,LIMJ,Genoa,Genoa Cristoforo Colombo Airport,IT-42,1,9564,13,IT,EU,44.4132995605,8.83749961853
170,NAP,LIRN,Naples,Naples International Airport,IT-72,1,8622,294,IT,EU,40.8860015869,14.2908000946
171,PSA,LIRP,Pisa,Pisa International Airport,IT-52,2,9820,6,IT,EU,43.6838989258,10.3927001953
172,TRN,LIMF,Turin,Turin Airport,IT-21,1,10827,989,IT,EU,45.2008018494,7.64963006973
173,BLQ,LIPE,Bologna,Bologna Guglielmo Marconi Airport,IT-45,1,9186,123,IT,EU,44.5354003906,11.2887001038
174,TSF,LIPH,Venice,"Venice, Treviso-Sant Angelo Airport",IT-34,1,7941,59,IT,EU,45.648399353,12.1943998337
175,VRN,LIPX,Verona,Verona Villafranca Airport,IT-34,1,10064,239,IT,EU,45.3956985474,10.8885002136
176,NTE,LFRS,Nantes,Nantes Atlantique Airport,FR-R,1,9514,90,FR,EU,47.1531982422,-1.61073005199
177,CPH,EKCH,Copenhagen,Copenhagen Kastrup Airport,DK-84,3,11811,17,DK,EU,55.6179008483887,12.6560001373291
179,LUX,ELLX,Luxembourg,Luxembourg-Findel International Airport,LU-L,1,13123,1234,LU,EU,49.6265983581543,6.21152019500732
198,DUS,EDDL,Dusseldorf,Dusseldorf International Airport,DE-NW,2,9842,147,DE,EU,51.2895011901855,6.76677989959717
200,TXL,EDDT,Berlin,"Berlin, Tegel International Airport *Closed*",DE-BE,2,9918,122,DE,EU,52.5597000122,13.2876996994
206,LTN,EGGW,London,London Luton Airport,GB-ENG,1,7086,526,UK,EU,51.874698638916,-0.368333011865616
228,LPA,GCLP,Gran Canaria,Gran Canaria Airport,ES-CN,2,10171,78,ES,EU,27.9319000244141,-15.3865995407104
229,SOU,EGHI,Southampton,Southampton Airport,GB-ENG,1,5653,44,UK,EU,50.9502983093262,-1.35679996013641
230,PMI,LEPA,Palma De Mallorca,Palma De Mallorca Airport,ES-PM,2,10728,27,ES,EU,39.551700592,2.73881006241
251,AGP,LEMG,Malaga,Malaga Airport,ES-AN,2,10500,53,ES,EU,36.6749000549316,-4.49911022186279
253,LBA,EGNM,Leeds,Leeds Bradford Airport,GB-ENG,1,7382,681,UK,EU,53.8658981323242,-1.66057002544403
254,ABZ,EGPD,Aberdeen,Aberdeen Dyce Airport,GB-SCT,4,6001,215,UK,EU,57.2019004821777,-2.19777989387512
260,BRS,EGGD,Bristol,Bristol International Airport,GB-ENG,1,6598,622,UK,EU,51.3827018737793,-2.7190899848938
261,NCL,EGNT,Newcastle,Newcastle Airport,GB-ENG,1,7642,266,UK,EU,55.0374984741211,-1.69166994094849
274,EIN,EHEH,Eindhoven,Eindhoven Airport,NL-NB,1,9843,74,NL,EU,51.4500999451,5.37452983856
275,SVQ,LEZL,Sevilla,Sevilla Airport,ES-AN,1,11024,112,ES,EU,37.4179992675781,-5.8931097984314
276,BSL,LFSB,Basle,EuroAirport Basle-Mulhouse-Freiburg Airport (BSL/MLH/EAP),FR-A,2,12795,885,FR,EU,47.5895996094,7.52991008759
313,WRO,EPWR,Wroclaw,Copernicus Wroclaw Airport,PL-DS,1,8202,404,PL,EU,51.1026992798,16.885799408
324,BHD,EGAC,Belfast,George Best Belfast City Airport,GB-NIR,1,6001,15,UK,EU,54.6180992126465,-5.87249994277954
326,HAJ,EDDV,Hannover,Hannover Airport,DE-NI,3,12467,183,DE,EU,52.461101532,9.68507957458
327,LIN,LIML,Milan,Linate Airport,IT-25,2,8005,353,IT,EU,45.445098877,9.27674007416
328,LYS,LFLL,Lyon,Lyon Saint-Exupery Airport,FR-V,2,11483,821,FR,EU,45.726398468,5.09082984924
329,MRS,LFML,Marseille,Marseille Provence Airport,FR-U,2,11483,74,FR,EU,43.439271922,5.22142410278
331,RTM,EHRD,Rotterdam,Rotterdam Airport,NL-ZH,1,7218,-15,NL,EU,51.9569015503,4.43722009659
344,TLS,LFBO,Toulouse/Blagnac,Toulouse-Blagnac Airport,FR-N,2,11483,499,FR,EU,43.6291007995605,1.36381995677948
351,LCG,LECO,Culleredo,A Coruna Airport,ES-GA,1,6365,326,ES,EU,43.3021011352539,-8.37726020812988
433,INN,LOWI,Innsbruck,Innsbruck Airport,AT-7,1,6562,1906,AT,EU,47.2602005005,11.3439998627
451,BHX,EGBB,Birmingham,Birmingham International Airport,GB-ENG,1,8527,327,UK,EU,52.4538993835,-1.74802994728
452,INV,EGPE,Inverness,Inverness Airport,GB-SCT,2,6191,31,UK,EU,57.5424995422363,-4.0475001335144
453,SZG,LOWS,Salzburg,Salzburg Airport,AT-5,1,9022,1411,AT,EU,47.7933006287,13.0043001175
459,BLL,EKBI,Billund,Billund Airport,DK-83,1,10172,247,DK,EU,55.7402992249,9.15178012848
460,BRN,LSZB,Bern,Bern Belp Airport,CH-BE,3,4954,1674,CH,EU,46.914100647,7.49714994431
462,GRX,LEGR,Granada,Federico Garcia Lorca Airport,ES-AN,1,9514,1860,ES,EU,37.1887016296387,-3.77735996246338
463,FLR,LIRQ,Firenze,Peretola Airport,IT-52,1,5425,142,IT,EU,43.8100013733,11.2051000595
464,DRS,EDDC,Dresden,Dresden Airport,DE-SN,1,8228,755,DE,EU,51.1328010559082,13.7672004699707
465,DOL,LFRG,Deauville,Deauville-Saint-Gatien Airport,FR-P,1,8366,479,FR,EU,49.3652992249,0.154305994511
466,BVE,LFSL,Brive,Brive Souillac Airport,FR-L,2,6890,1016,FR,EU,45.0397222222,1.48555555556
467,BES,LFRB,Brest/Guipavas,Brest Bretagne Airport,FR-E,2,10171,325,FR,EU,48.4478988647461,-4.41854000091553
468,ANR,EBAW,Antwerp,Antwerp International Airport (Deurne),BE-VAN,1,4954,39,BE,EU,51.1893997192,4.46027994156
469,BRE,EDDW,Bremen,Bremen Airport,DE-HB,2,6693,14,DE,EU,53.0475006104,8.78666973114
470,CFE,LFLC,Clermont-Ferrand/Auvergne,Clermont-Ferrand Auvergne Airport,FR-C,2,9892,1090,FR,EU,45.7867012023926,3.16916990280151
473,SXF,none,Berlin,Berlin-Schönefeld International Airport *Closed*,DE-BR,2,9843,157,DE,EU,52.3800010681152,13.522500038147
474,ERF,EDDE,Erfurt,Erfurt Airport,DE-TH,1,8530,1036,DE,EU,50.9798011779785,10.9581003189087
475,BFS,EGAA,Belfast,Belfast International Airport,GB-NIR,2,9121,268,UK,EU,54.6575012207,-6.21582984924
476,NQY,EGHQ,Newquay,Newquay Cornwall Airport,GB-ENG,1,9006,390,UK,EU,50.440601348877,-4.99540996551514
478,AAL,EKYT,Aalborg,Aalborg Airport,DK-81,2,8707,10,DK,EU,57.0927589138,9.84924316406
482,KRK,EPKK,Kraków,John Paul II International Airport Kraków-Balice Airport,PL-MA,1,8366,791,PL,EU,50.0777015686035,19.7847995758057
484,FUE,GCFV,Fuerteventura Island,Fuerteventura Airport,ES-CN,1,11175,85,ES,EU,28.4526996612549,-13.8638000488281
485,ACE,GCRR,Lanzarote Island,Lanzarote Airport,ES-CN,1,7874,46,ES,EU,28.945499420166,-13.6051998138428
486,TFS,GCTS,Tenerife Island,Tenerife South Airport,ES-CN,1,10499,209,ES,EU,28.044500351,-16.5725002289
495,LEI,LEAM,Almería,Almería International Airport,ES-AN,1,10499,70,ES,EU,36.8438987731934,-2.3701000213623
496,MJV,LELC,San Javier,San Javier Airport,ES-MU,3,7546,11,ES,EU,37.7750015258789,-0.812389016151428
497,SCQ,LEST,Santiago de Compostela,Santiago de Compostela Airport,ES-GA,1,10499,1213,ES,EU,42.8963012695312,-8.41514015197754
498,VLC,LEVC,Valencia,Valencia Airport,ES-V,2,8858,240,ES,EU,39.4892997741699,-0.481624990701675
499,BOD,LFBD,Bordeaux/Mérignac,Bordeaux-Mérignac Airport,FR-B,2,10171,162,FR,EU,44.8283004761,-0.715556025505
500,BIA,LFKB,Bastia/Poretta,Bastia-Poretta Airport,FR-H,1,8266,26,FR,EU,42.5527000427246,9.48373031616211
501,AJA,LFKJ,Ajaccio/Napoléon Bonaparte,Ajaccio-Napoléon Bonaparte Airport,FR-H,1,7897,18,FR,EU,41.9235992431641,8.8029203414917
502,MPL,LFMT,Montpellier/Méditerranée,Montpellier-Méditerranée Airport,FR-K,2,8530,17,FR,EU,43.5761985778809,3.96301007270813
503,SXB,LFST,Strasbourg,Strasbourg Airport,FR-A,1,7874,505,FR,EU,48.5382995605469,7.62823009490967
511,BRI,LIBD,Bari,Bari Karol Wojtyła Airport,IT-75,2,8005,177,IT,EU,41.1389007568,16.7605991364
512,CTA,LICC,Catania,Catania-Fontanarossa Airport,IT-82,1,7989,39,IT,EU,37.4668006897,15.0663995743
513,PMO,LICJ,Palermo,Falcone–Borsellino Airport,IT-82,2,10912,65,IT,EU,38.1759986877,13.0909996033
514,OLB,LIEO,Olbia,Olbia Costa Smeralda Airport,IT-88,1,8025,37,IT,EU,40.8987007141,9.51762962341
524,DTM,EDLW,Dortmund,Dortmund Airport,DE-NW,1,6562,425,DE,EU,51.5182991028,7.61223983765
532,NUE,EDDN,Nuremberg,Nuremberg Airport,DE-BY,1,8858,1046,DE,EU,49.4986991882,11.0669002533
533,LEJ,EDDP,Leipzig,Leipzig Halle Airport,DE-SN,2,11811,465,DE,EU,51.4323997497559,12.2416000366211
534,CWL,EGFF,Cardiff,Cardiff International Airport,GB-WLS,1,7848,220,UK,EU,51.3967018127441,-3.34332990646362
535,SEN,EGMC,Southend,London Southend Airport,GB-ENG,1,5023,49,UK,EU,51.5713996887207,0.695555984973907
536,HUY,EGNJ,Grimsby,Humberside Airport,GB-ENG,2,7205,121,UK,EU,53.5744018554688,-0.350832998752594
537,MME,EGNV,Durham,Durham Tees Valley Airport,GB-ENG,1,7516,120,UK,EU,54.5092010498047,-1.42940998077393
538,NWI,EGSH,Norwich,Norwich International Airport,GB-ENG,2,6040,117,UK,EU,52.6758003235,1.28278005123
539,EXT,EGTE,Exeter,Exeter International Airport,GB-ENG,2,6834,102,UK,EU,50.7344017028809,-3.41388988494873
541,GDN,EPGD,Gdańsk,Gdańsk Lech Wałęsa Airport,PL-PM,1,9186,489,PL,EU,54.3776016235352,18.4661998748779
544,SPC,GCLA,"Sta Cruz de la Palma, La Palma Island",La Palma Airport,ES-CN,1,7218,107,ES,EU,28.6264991760254,-17.7555999755859
550,GRO,LEGE,Girona,Girona Airport,ES-CT,1,7874,468,ES,EU,41.9010009765625,2.76055002212524
554,SUF,LICA,Lamezia Terme,Lamezia Terme Airport,IT-78,1,7920,39,IT,EU,38.9053993225098,16.2423000335693
636,KTW,EPKT,Katowice,Katowice International Airport,PL-SL,1,9183,995,PL,EU,50.4743003845,19.0799999237
637,LUZ,EPLB,Lublin,Lublin Airport,PL-U-A,1,8268,633,PL,EU,51.240278,22.713611
660,REU,LERS,Reus,Reus Air Base,ES-CT,2,8054,233,ES,EU,41.1473999023438,1.16717004776001
661,BZR,LFMU,Béziers/Vias,Béziers-Vias Airport,FR-K,1,5971,56,FR,EU,43.3235015869141,3.35389995574951
783,FNI,LFTW,Nîmes/Garons,Nîmes-Arles-Camargue Airport,FR-K,1,8005,309,FR,EU,43.7574005126953,4.4163498878479
784,CRL,EBCI,Brussels,Brussels South Charleroi Airport,BE-WHT,1,8366,614,BE,EU,50.4592018127,4.45382022858
787,WMI,EPMO,Warsaw,Modlin Airport,PL-MZ,1,8202,341,PL,EU,52.4510993958,20.6518001556
788,RZE,EPRZ,Rzeszów,Rzeszów-Jasionka Airport,PL-PK,2,10499,675,PL,EU,50.1100006104,22.0189990997
791,BVA,LFOB,Beauvais/Tillé,Paris Beauvais Tillé Airport,FR-S,3,7972,359,FR,EU,49.4543991088867,2.11278009414673
792,TPS,LICT,Trapani,Vincenzo Florio Airport Trapani-Birgi,IT-82,1,8852,25,IT,EU,37.9113998413,12.4879999161
793,BGY,LIME,Bergamo,Il Caravaggio International Airport,IT-25,2,9636,782,IT,EU,45.6739006042,9.70417022705
794,CIA,LIRA,Roma,Ciampino–G. B. Pastine International Airport,IT-62,1,7242,427,IT,EU,41.7994003296,12.5949001312
797,HDF,EDAH,Heringsdorf,Heringsdorf Airport,DE-MV,2,7562,93,DE,EU,53.8787002563,14.152299881
798,FMO,EDDG,Münster,Münster Osnabrück Airport,DE-NW,1,7119,160,DE,EU,52.134601593,7.68483018875
799,FDH,EDNY,Friedrichshafen,Friedrichshafen Airport,DE-BW,1,7729,1367,DE,EU,47.6712989807,9.51148986816
800,GWT,EDXW,Westerland,Westerland Sylt Airport,DE-SH,2,6955,51,DE,EU,54.9132003784,8.34047031403
801,POZ,EPPO,Poznań,Poznań-Ławica Airport,PL-WP,2,8215,308,PL,EU,52.4210014343,16.8262996674
803,XRY,LEJR,Jerez de la Forntera,Jerez Airport,ES-AN,1,7546,93,ES,EU,36.7445983886719,-6.06011009216309
805,GRZ,LOWG,Graz,Graz Airport,AT-6,3,9842,1115,AT,EU,46.9911003112793,15.4395999908447
806,LNZ,LOWL,Linz,Linz Airport,AT-4,2,9843,978,AT,EU,48.2332000732422,14.1875
853,OVD,LEAS,Ranón,Asturias Airport,ES-O,1,7218,416,ES,EU,43.5635986328125,-6.03461980819702
854,VGO,LEVX,Vigo,Vigo Airport,ES-GA,1,7874,856,ES,EU,42.2318000793457,-8.62677001953125
855,PUF,LFBP,Pau/Pyrénées (Uzein),Pau Pyrénées Airport,FR-B,1,8202,616,FR,EU,43.3800010681152,-0.418610990047455
856,BIQ,LFBZ,Biarritz/Anglet/Bayonne,Biarritz-Anglet-Bayonne Airport,FR-B,1,7382,245,FR,EU,43.4683990478516,-1.5233199596405
857,CLY,LFKC,Calvi/Sainte-Catherine,Calvi-Sainte-Catherine Airport,FR-H,1,7579,209,FR,EU,42.5307998657227,8.79319000244141
858,RNS,LFRN,Rennes/Saint-Jacques,Rennes-Saint-Jacques Airport,FR-E,2,6890,124,FR,EU,48.0694999695,-1.73478996754
859,OSR,LKMT,Ostrava,Ostrava Leos Janáček Airport,CZ-MO,1,11484,844,CZ,EU,49.6963005065918,18.1110992431641
1208,MLN,GEML,Melilla,Melilla Airport,ES-ML,1,4685,156,ES,EU,35.279800415,-2.9562599659
1209,BJZ,LEBZ,Badajoz,Badajoz Airport,ES-EX,1,9350,609,ES,EU,38.891300201416,-6.82133007049561
1210,RJL,LELO,Logroño,Logroño-Agoncillo Airport,ES-LO,1,6562,1161,ES,EU,42.4609534888,-2.32223510742
1211,PNA,LEPP,Pamplona,Pamplona Airport,ES-NA,2,7241,1504,ES,EU,42.7700004577637,-1.64632999897003
1212,EAS,LESO,Hondarribia,San Sebastian Airport,ES-PV,1,5755,16,ES,EU,43.3564987182617,-1.79060995578766
1213,SDR,LEXJ,Santander,Santander Airport,ES-S,1,7612,16,ES,EU,43.4271011352539,-3.82000994682312
1214,LDE,LFBT,Tarbes/Lourdes/Pyrénées,Tarbes-Lourdes-Pyrénées Airport,FR-N,1,9843,1260,FR,EU,43.1786994934082,-0.006438999902457
1215,AHO,LIEA,Alghero,Alghero-Fertilia Airport,IT-88,1,9843,87,IT,EU,40.6320991516,8.29076957703
1216,CAG,LIEE,Cagliari,Cagliari Elmas Airport,IT-88,1,9196,13,IT,EU,39.251499176,9.05428028107
1223,KLU,LOWK,Klagenfurt am Wörthersee,Klagenfurt Airport,AT-2,2,8924,1470,AT,EU,46.6425018311,14.3376998901
1227,ACH,LSZR,Altenrhein,St Gallen Altenrhein Airport,CH-SG,3,4922,1306,CH,EU,47.4850006104,9.56077003479
1232,LIL,LFQQ,Lille/Lesquin,Lille-Lesquin Airport,FR-O,2,9268,157,FR,EU,50.5619010925293,3.08944010734558
1233,BDS,LIBR,Brindisi,Brindisi – Salento Airport,IT-75,2,8307,47,IT,EU,40.6576004028,17.9470005035
1234,LUG,LSZA,Lugano,Lugano Airport,CH-TI,1,4429,915,CH,EU,46.0042991638,8.9105796814
1235,EBA,LIRJ,Marina  Di Campo,Marina Di Campo Airport,IT-52,1,3114,31,IT,EU,42.7602996826172,10.2393999099731
1237,LIG,LFBL,Limoges/Bellegarde,Limoges Airport,FR-L,1,8202,1300,FR,EU,45.8628005981445,1.17944002151489
1238,ETZ,LFJL,Metz / Nancy,Metz-Nancy-Lorraine Airport,FR-M,1,8202,870,FR,EU,48.9821014404,6.25131988525
1239,FSC,LFKF,Figari Sud-Corse,Figari Sud-Corse Airport,FR-H,1,8136,87,FR,EU,41.5005989074707,9.09778022766113
1240,CFR,LFRK,Caen/Carpiquet,Caen-Carpiquet Airport,FR-P,2,6233,256,FR,EU,49.1733016967773,-0.449999988079071
1264,HHN,EDFH,Hahn,Frankfurt-Hahn Airport,DE-RP,1,12467,1649,DE,EU,49.9486999512,7.26388978958
1265,FMM,EDJA,Memmingen,Memmingen Allgau Airport,DE-BY,1,9780,2077,DE,EU,47.9888000488,10.2395000458
1266,BOH,EGHH,Bournemouth,Bournemouth Airport,GB-ENG,1,7451,38,UK,EU,50.7799987792969,-1.84249997138977
1267,BLK,EGNH,Blackpool,Blackpool International Airport,GB-ENG,3,6132,34,UK,EU,53.7717018127441,-3.02860999107361
1268,PIK,EGPK,Glasgow,Glasgow Prestwick Airport,GB-SCT,2,9800,65,UK,EU,55.5093994140625,-4.586669921875
1270,BZG,EPBY,Bydgoszcz,Bydgoszcz Ignacy Jan Paderewski Airport,PL-KP,1,8202,235,PL,EU,53.0968017578,17.9776992798
1271,SZZ,EPSC,Goleniow,Szczecin-Goleniów Solidarność Airport,PL-ZP,1,8202,154,PL,EU,53.5847015381,14.9021997452
1277,LRH,LFBH,La Rochelle/Île de Ré,La Rochelle-Île de Ré Airport,FR-T,1,7398,74,FR,EU,46.17919921875,-1.19527995586395
1278,RDZ,LFCR,Rodez/Marcillac,Rodez-Marcillac Airport,FR-N,1,6693,1910,FR,EU,44.407901763916,2.48267006874084
1279,CCF,LFMK,Carcassonne/Salvaza,Carcassonne Airport,FR-K,1,6726,433,FR,EU,43.2159996032715,2.30631995201111
1280,PGF,LFMP,Perpignan/Rivesaltes,Perpignan-Rivesaltes (Llabanère) Airport,FR-K,2,8202,144,FR,EU,42.7403984069824,2.87067008018494
1281,TUF,LFOT,Tours/Val de Loire (Loire Valley),Tours-Val-de-Loire Airport,FR-F,1,7887,357,FR,EU,47.4322013855,0.727605998516
1282,CIY,LICB,Comiso,Comiso Airport,IT-82,1,8070,623,IT,EU,36.9946010208,14.6071815491
1355,PAD,EDLP,Paderborn,Paderborn Lippstadt Airport,DE-NW,1,7152,699,DE,EU,51.6141014099,8.61631965637
1356,NRN,EDLV,Weeze,Niederrhein Airport,DE-NW,1,8005,106,DE,EU,51.6024017334,6.14216995239
1357,LDY,EGAE,Derry,City of Derry Airport,GB-NIR,2,6076,22,UK,EU,55.0428009033203,-7.16110992431641
1358,CAL,EGEC,Campbeltown,Campbeltown Airport,GB-SCT,1,10003,42,UK,EU,55.437198638916,-5.6863899230957
1359,KOI,EGPA,Orkney Islands,Kirkwall Airport,GB-SCT,3,4685,50,UK,EU,58.9578018188477,-2.90499997138977
1360,LSI,EGPB,Lerwick,"Sumburgh Airport, Shetland Islands",GB-SCT,3,4678,20,UK,EU,59.8788986206055,-1.29556000232697
1361,WIC,EGPC,Wick,Wick Airport,GB-SCT,2,5988,126,UK,EU,58.4589004516602,-3.09306001663208
1362,ILY,EGPI,Port Ellen,Islay Airport,GB-SCT,2,5069,56,UK,EU,55.6819000244141,-6.25666999816895
1363,BEB,EGPL,Balivanich,Benbecula Airport,GB-SCT,2,6024,19,UK,EU,57.4810981750488,-7.36278009414673
1364,SYY,EGPO,Stornoway,Stornoway Airport,GB-SCT,2,7218,26,UK,EU,58.2155990600586,-6.33111000061035
1365,BRR,EGPR,Eoligarry,Barra Airport,GB-SCT,3,2776,5,UK,EU,57.0228004455566,-7.44305992126465
1366,TRE,EGPU,Balemartine,Tiree Airport,GB-SCT,3,4600,38,UK,EU,56.4991989135742,-6.86917018890381
1369,RLG,ETNL,Rostock,Rostock-Laage Airport,DE-MV,1,8202,138,DE,EU,53.9182014465,12.2783002853
1374,RGS,LEBG,Burgos,Burgos Airport,ES-CL,1,4393,2945,ES,EU,42.3576011657715,-3.62075996398926
1375,LEN,LELN,León,Leon Airport,ES-CL,2,6890,3006,ES,EU,42.5890007019043,-5.65556001663208
1376,SLM,LESA,Salamanca,Salamanca Airport,ES-CL,2,8202,2595,ES,EU,40.9520988464355,-5.50198984146118
1377,VLL,LEVD,Valladolid,Valladolid Airport,ES-CL,2,9843,2776,ES,EU,41.7061004639,-4.85194015503
1378,EGC,LFBE,Bergerac/Roumanière,Bergerac-Roumanière Airport,FR-B,1,7234,171,FR,EU,44.8252983093262,0.518611013889313
1379,PIS,LFBI,Poitiers/Biard,Poitiers-Biard Airport,FR-T,1,7710,423,FR,EU,46.5876998901367,0.306665986776352
1383,LMP,LICD,Lampedusa,Lampedusa Airport,IT-82,1,5906,70,IT,EU,35.4978981018066,12.6181001663208
1384,PNL,LICG,Pantelleria,Pantelleria Airport,IT-82,2,5495,628,IT,EU,36.8165016174316,11.9688997268677
1385,REG,LICR,Reggio Calabria,Reggio Calabria Airport,IT-78,2,6549,96,IT,EU,38.0712013244629,15.6515998840332
1386,TRS,LIPQ,Trieste,Trieste–Friuli Venezia Giulia Airport,IT-36,1,9843,39,IT,EU,45.8274993896,13.4722003937
1387,AOI,LIPY,Ancona,Ancona Falconara Airport,IT-57,1,9718,49,IT,EU,43.6162986755,13.3622999191
1396,BZO,LIPB,Bolzano,Bolzano Airport,IT-32,2,4255,789,IT,EU,46.4602012634277,11.3263998031616
1397,AAR,EKAH,Aarhus,Aarhus Airport,DK-82,2,9111,82,DK,EU,56.2999992371,10.6190004349
1419,FKB,EDSB,Baden-Baden,Karlsruhe Baden-Baden Airport,DE-BW,1,9787,408,DE,EU,48.7793998718,8.08049964905
1420,DND,EGPN,Dundee,Dundee Airport,GB-SCT,1,4593,17,UK,EU,56.4524993896484,-3.02583003044128
1426,ZAZ,LEZG,Zaragoza,Zaragoza Air Base,ES-AR,2,12198,863,ES,EU,41.6661987304688,-1.04155004024506
1427,DNR,LFRD,Dinard/Pleurtuit/Saint-Malo,Dinard-Pleurtuit-Saint-Malo Airport,FR-E,2,7218,219,FR,EU,48.5876998901367,-2.07996010780334
1428,TLN,LFTH,Toulon/Hyères/Le Palyvestre,Toulon-Hyères Airport,FR-U,2,6955,7,FR,EU,43.0973014832,6.14602994919
1429,PSR,LIBP,Pescara,Pescara International Airport,IT-65,1,7933,48,IT,EU,42.4317016601562,14.1810998916626
1430,PMF,LIMP,Parma,Parma Airport,IT-45,1,6962,161,IT,EU,44.8245010375977,10.2964000701904
1431,PEG,LIRZ,Perugia,Perugia San Francesco d'Assisi – Umbria International Airport,IT-55,1,5564,697,IT,EU,43.0959014893,12.5131998062
1432,BRQ,LKTB,Brno,Brno-Tuřany Airport,CZ-JM,1,8694,778,CZ,EU,49.1512985229492,16.6944007873535
1673,AGF,LFBA,Agen/La Garenne,Agen-La Garenne Airport,FR-B,1,7103,204,FR,EU,44.1747016906738,0.590556025505066
1674,PGX,LFBX,Périgueux/Bassillac,Périgueux-Bassillac Airport,FR-B,1,5741,328,FR,EU,45.1981010437012,0.815555989742279
1675,DCM,LFCK,Castres/Mazamet,Castres-Mazamet Airport,FR-N,1,5988,788,FR,EU,43.5563011169434,2.2891800403595
1676,LPY,LFHP,Le Puy/Loudes,Le Puy-Loudes Airport,FR-C,2,4741,2731,FR,EU,45.0806999206543,3.76289010047913
1677,AUR,LFLW,Aurillac,Aurillac Airport,FR-C,1,5577,2096,FR,EU,44.8913993835449,2.42194008827209
1678,LRT,LFRH,Lorient/Lann/Bihoué,Lorient South Brittany (Bretagne Sud) Airport,FR-E,2,7884,160,FR,EU,47.7606010437012,-3.44000005722046
1679,LAI,LFRO,Lannion,Lannion-Côte de Granit Airport,FR-E,1,5577,290,FR,EU,48.7543983459473,-3.47165989875793
1680,UIP,LFRQ,Quimper/Pluguffan,Quimper-Cornouaille Airport,FR-E,2,7054,297,FR,EU,47.9749984741211,-4.16778993606567
1729,LGG,EBLG,Liège,Liège Airport,BE-WLG,2,10784,659,BE,EU,50.6374015808105,5.4432201385498
1730,OST,EBOS,Ostend,Ostend-Bruges International Airport,BE-VWV,2,10499,13,BE,EU,51.1988983154,2.8622200489
1731,SCN,EDDR,Saarbrücken,Saarbrücken Airport,DE-SL,2,6562,1058,DE,EU,49.2145996094,7.10950994492
1732,LBC,EDHL,Lübeck,Lübeck Blankensee Airport,DE-SH,1,6896,53,DE,EU,53.8054008484,10.7192001343
1733,ZQW,EDRZ,Zweibrücken,Zweibrücken Airport,DE-RP,1,9677,1132,DE,EU,49.209400177002,7.40055990219116
1734,KSF,EDVK,Kassel,Kassel-Calden Airport,DE-HE,2,4921,909,DE,EU,51.408332824707,9.3774995803833
1735,DSA,EGCN,Doncaster,Robin Hood Doncaster Sheffield Airport,GB-ENG,1,9491,55,UK,EU,53.4805378105,-1.01065635681
1736,MST,EHBK,Maastricht,Maastricht Aachen Airport,NL-LI,1,8202,375,NL,EU,50.9117012024,5.77014017105
1737,GRQ,EHGG,Groningen,Eelde Airport,NL-DR,2,8202,17,NL,EU,53.1197013855,6.57944011688
1743,ILD,LEDA,Lleida,Lleida-Alguaire Airport,ES-CT,1,8202,1170,ES,EU,41.728185,0.535023
1744,DLE,LFGJ,Dole/Tavaux,Dole-Tavaux Airport,FR-I,1,7318,645,FR,EU,47.0390014648438,5.42724990844727
1924,MHG,EDFM,Mannheim,Mannheim-City Airport,DE-BW,2,3497,308,DE,EU,49.4730567932129,8.51416683197021
1925,XFW,EDHI,Hamburg,Hamburg-Finkenwerder Airport,DE-HH,1,8629,23,DE,EU,53.5352783203125,9.83555603027344
1926,AGB,EDMA,Augsburg,Augsburg Airport,DE-BY,2,4199,1516,DE,EU,48.4252777099609,10.9316673278809
1929,GLO,EGBJ,Staverton,Gloucestershire Airport,GB-ENG,3,4656,101,UK,EU,51.8941993713379,-2.16722011566162
1930,EOI,EGED,Eday,Eday Airport,GB-SCT,2,1896,10,UK,EU,59.190601348877,-2.77221989631653
1931,NRL,EGEN,North Ronaldsay,North Ronaldsay Airport,GB-SCT,3,1729,40,UK,EU,59.3675003052,-2.43443989754
1932,PPW,EGEP,Papa Westray,Papa Westray Airport,GB-SCT,3,1729,91,UK,EU,59.3516998291,-2.90027999878
1933,SOY,EGER,Stronsay,Stronsay Airport,GB-SCT,3,1689,39,UK,EU,59.1553001404,-2.64139008522
1934,NDY,EGES,Sanday,Sanday Airport,GB-SCT,3,1532,68,UK,EU,59.250301361084,-2.57666993141174
1935,WRY,EGEW,Westray,Westray Airport,GB-SCT,3,1729,29,UK,EU,59.3502998352,-2.95000004768
1936,ISC,EGHE,St. Mary's,St. Mary's Airport,GB-ENG,3,1968,116,UK,EU,49.9132995605469,-6.29166984558105
1938,CEG,EGNR,Hawarden,Hawarden Airport,GB-WLS,1,6702,45,UK,EU,53.1781005859375,-2.97778010368347
1939,VLY,EGOV,Angelsey,Anglesey Airport,GB-WLS,3,7513,37,UK,EU,53.2481002808,-4.53533983231
1940,EBJ,EKEB,Esbjerg,Esbjerg Airport,DK-83,1,8527,97,DK,EU,55.5259017944336,8.55340003967285
1941,KRP,EKKA,Karup,Karup Airport,DK-82,5,9816,170,DK,EU,56.2975006103516,9.12462997436523
1942,RNN,EKRN,Rønne,Bornholm Airport,DK-84,1,6568,52,DK,EU,55.0633010864258,14.7595996856689
1943,SGD,EKSB,Sønderborg,Sønderborg Airport,DK-83,1,5895,24,DK,EU,54.9644012451172,9.79172992706299
2017,GMZ,GCGM,"Alajero, La Gomera Island",La Gomera Airport,ES-CN,1,4921,716,ES,EU,28.0296001434326,-17.214599609375
2018,VDE,GCHI,El Hierro Island,Hierro Airport,ES-CN,1,4101,103,ES,EU,27.8148002624512,-17.8871002197266
2113,EBU,LFMH,Saint-Étienne/Bouthéon,Saint-Étienne-Bouthéon Airport,FR-V,1,7546,1325,FR,EU,45.540599822998,4.29639005661011
2114,AVN,LFMV,Avignon/Caumont,Avignon-Caumont Airport,FR-U,1,6168,124,FR,EU,43.907299041748,4.90183019638062
2115,LEH,LFOH,Le Havre/Octeville,Le Havre Octeville Airport,FR-Q,1,7546,313,FR,EU,49.5339012145996,0.0880559980869293
2116,XCR,LFOK,Châlons/Vatry,Châlons-Vatry Air Base,FR-G,1,12664,587,FR,EU,48.7761001586914,4.18449020385742
2117,DIJ,LFSD,Dijon/Longvic,Dijon-Bourgogne Airport,FR-D,2,7874,726,FR,EU,47.268901825,5.09000015259
2120,CUF,LIMZ,Cuneo,Cuneo International Airport,IT-21,1,6903,1267,IT,EU,44.547000885,7.62321996689
2121,RMI,LIPR,Rimini,Federico Fellini International Airport,IT-45,1,9828,40,IT,EU,44.0203018188,12.611700058
2122,KLV,LKKV,Karlovy Vary,Karlovy Vary International Airport,CZ-KA,1,7054,1989,CZ,EU,50.2029991149902,12.914999961853
2123,PED,LKPD,Pardubice,Pardubice Airport,CZ-PA,1,8203,741,CZ,EU,50.0134010314941,15.7385997772217
3018,LEQ,EGHC,Land's End,Land's End Airport,GB-ENG,4,2598,401,UK,EU,50.1027984619141,-5.67055988311768
3068,ANG,LFBU,Angoulême/Brie/Champniers,Angoulême-Brie-Champniers Airport,FR-T,1,5938,436,FR,EU,45.7291984558105,0.221456006169319
3266,CDT,LECN,Castellón de La Plana,Castellon De La Plana Airport,ES-V,1,3117,20,ES,EU,39.9991989136,0.0261109992862
3267,LCJ,EPLL,Łódź,Łódź Władysław Reymont Airport,PL-LD,2,8022,604,PL,EU,51.7219009399,19.3980998993
3276,SZY,EPSY,Szcytno,Olsztyn-Mazury Airport,PL-WN,1,6562,463,PL,EU,53.481858,20.937692
3307,CVT,EGBE,Coventry,Coventry Airport,GB-ENG,1,5988,267,UK,EU,52.3697013855,-1.47971999645
3321,CMF,LFLB,Chambéry/Aix-les-Bains,Chambéry-Savoie Airport,FR-V,1,6628,779,FR,EU,45.6380996704102,5.88022994995117
3334,BZZ,EGVN,Oxford/Brize Norton,RAF Brize Norton,GB-ENG,1,10007,288,UK,EU,51.749964,-1.58361995220184
3338,GNB,LFLS,Grenoble,Grenoble Alpes-Isère Airport,FR-V,1,10007,1302,FR,EU,45.3628997802734,5.32937002182007
3355,VIT,LEVT,Vitoria,Vitoria/Foronda Airport,ES-PV,1,11483,1682,ES,EU,42.8828010559082,-2.72446990013123
3366,ANE,LFJR,Angers,"Marce, Angers - Loire Airport",FR-R,2,5906,194,FR,EU,47.5602989196777,-0.312222003936768
3367,URO,LFOP,Rouen,Vallee de Seine Airport,FR-Q,2,5577,512,FR,EU,49.3842010498047,1.17480003833771
3370,FIE,EGEF,Fair Isle,"Shetland Islands, Fair Isle Airport",GB-SCT,1,1667,223,UK,EU,59.5358009338379,-1.62805998325348
3371,LWK,EGET,Lerwick,Tingwall Airport,GB-SCT,1,2395,43,UK,EU,60.192199707,-1.24361002445
3372,FOA,none,Foula,Foula Airport,GB-SCT,1,1444,150,UK,EU,60.1209983825684,-2.05200004577637
3373,PSV,none,Papa Stour Island,Papa Stour Airport,GB-SCT,1,1465,59,UK,EU,60.3217010498047,-1.69306004047394
3374,NDZ,ETMN,Cuxhaven,Nordholz-Spieka,DE-NI,1,8002,74,DE,EU,53.7677001953,8.65849971771
3394,CHR,LFLX,Châteauroux/Déols,Châteauroux-Déols Marcel Dassault Airport,FR-F,1,11483,529,FR,EU,46.8622016906738,1.73066997528076
3396,GRS,LIRS,Grosetto,Grosseto Airport,IT-52,2,9823,15,IT,EU,42.7597007751465,11.0719003677368
3399,CRV,LIBC,Crotone,Crotone-Sant'Anna Airport,IT-78,1,6562,521,IT,EU,38.997200012207,17.0802001953125
3425,RMU,LEMI,Valladolises,Region of Murcia International Airport,ES-MC,1,9842,633,ES,EU,37.803,-1.125
3473,GYZ,LSGT,Gruyere,Gruyere Airport,CH-FR,1,2661,2257,CH,EU,46.5942001342773,7.09443998336792
3503,BER,EDDB,Berlin,Berlin Brandenburg International Airport,DE-BB,2,13123,157,DE,EU,52.378333,13.520556
